[{"name":"Ady Endre utca","ext_id":36159,"gpsLong":17.919774,"gpsLat":47.092916},{"name":"Ady Endre utca 60.","ext_id":36158,"gpsLong":17.924545,"gpsLat":47.093354},{"name":"Agroker","ext_id":16792,"gpsLong":17.892923,"gpsLat":47.115796},{"name":"Almádi út","ext_id":36173,"gpsLong":17.9206,"gpsLat":47.0857},{"name":"Aradi vértanúk utca","ext_id":36117,"gpsLong":17.918926,"gpsLat":47.110016},{"name":"Aulich Lajos utca","ext_id":30114,"gpsLong":17.913986,"gpsLat":47.114802},{"name":"Autóbusz-állomás","ext_id":16804,"gpsLong":17.914126,"gpsLat":47.095651},{"name":"Avar utca","ext_id":36127,"gpsLong":17.89558,"gpsLat":47.10583},{"name":"Avar utca 52.","ext_id":36189,"gpsLong":17.888789,"gpsLat":47.10542},{"name":"Bakony Művek","ext_id":16811,"gpsLong":17.877797,"gpsLat":47.115128},{"name":"BALLUFF","ext_id":16793,"gpsLong":17.875213,"gpsLat":47.105496},{"name":"Billege utca","ext_id":36170,"gpsLong":17.902543,"gpsLat":47.080628},{"name":"Bolgár Mihály utca","ext_id":36150,"gpsLong":17.92672,"gpsLat":47.10105},{"name":"Budapest utca","ext_id":36151,"gpsLong":17.925095,"gpsLat":47.098963},{"name":"Bűntetésvégrehajtási intézet","ext_id":20766,"gpsLong":17.937353,"gpsLat":47.110905},{"name":"Cholnoky forduló","ext_id":36156,"gpsLong":17.9235,"gpsLat":47.08726},{"name":"Cholnoky Jenő utca","ext_id":36174,"gpsLong":17.926726,"gpsLat":47.09312},{"name":"Cholnoky Spar","ext_id":36157,"gpsLong":17.924387,"gpsLat":47.091017},{"name":"Cholnoky templom","ext_id":36216,"gpsLong":17.925208,"gpsLat":47.092741},{"name":"Csatérhegy út","ext_id":36179,"gpsLong":17.865486,"gpsLat":47.107084},{"name":"Csererdő","ext_id":16817,"gpsLong":17.870175,"gpsLat":47.115018},{"name":"Csillag utca","ext_id":36153,"gpsLong":17.929043,"gpsLat":47.095662},{"name":"Csutorás utca","ext_id":36181,"gpsLong":17.909088,"gpsLat":47.097473},{"name":"Deák Ferenc iskola","ext_id":36118,"gpsLong":17.921876,"gpsLat":47.110531},{"name":"Diófa utca 2.","ext_id":36160,"gpsLong":17.918057,"gpsLat":47.09423},{"name":"Dózsa György tér","ext_id":36128,"gpsLong":17.8976,"gpsLat":47.10193},{"name":"Dugovics Titusz utca","ext_id":36167,"gpsLong":17.91079,"gpsLat":47.08205},{"name":"Egry József utca","ext_id":36169,"gpsLong":17.90607,"gpsLat":47.07822},{"name":"Egyetem utca","ext_id":36144,"gpsLong":17.90992,"gpsLat":47.08259},{"name":"Endrődi Sándor lakótelep","ext_id":36137,"gpsLong":17.896127,"gpsLat":47.094406},{"name":"Endrődi Sándor utca","ext_id":36138,"gpsLong":17.898056,"gpsLat":47.091099},{"name":"Fecske utca","ext_id":36180,"gpsLong":17.92403,"gpsLat":47.10233},{"name":"Festő utca","ext_id":36185,"gpsLong":17.902672,"gpsLat":47.095662},{"name":"Fórum","ext_id":36125,"gpsLong":17.884353,"gpsLat":47.11311},{"name":"Füredi utca","ext_id":36176,"gpsLong":17.911834,"gpsLat":47.083302},{"name":"Gyulafirátót, felső","ext_id":16788,"gpsLong":17.948012,"gpsLat":47.146863},{"name":"Gyulafirátót, forduló","ext_id":36200,"gpsLong":17.946,"gpsLat":47.14985},{"name":"Gyulafirátót, Posta utca","ext_id":36197,"gpsLong":17.947454,"gpsLat":47.13903},{"name":"Gyulafirátót, Vízi utca","ext_id":36198,"gpsLong":17.947796,"gpsLat":47.142484},{"name":"Harmat utca","ext_id":36134,"gpsLong":17.899796,"gpsLat":47.09461},{"name":"Haszkovó forduló","ext_id":36130,"gpsLong":17.915361,"gpsLat":47.109618},{"name":"Haszkovó utca","ext_id":36131,"gpsLong":17.9181,"gpsLat":47.10779},{"name":"Házgyár","ext_id":16805,"gpsLong":17.88311,"gpsLat":47.11382},{"name":"Hérics utca","ext_id":36155,"gpsLong":17.92702,"gpsLat":47.08909},{"name":"Hotel","ext_id":36065,"gpsLong":17.912328,"gpsLat":47.092185},{"name":"Hóvirág utca","ext_id":36143,"gpsLong":17.908744,"gpsLat":47.085772},{"name":"Iskola utca","ext_id":36177,"gpsLong":17.905526,"gpsLat":47.091148},{"name":"Juhar utca","ext_id":36190,"gpsLong":17.89214,"gpsLat":47.10291},{"name":"Jutasi út 61.","ext_id":36115,"gpsLong":17.912178,"gpsLat":47.10501},{"name":"Jutasi úti lakótelep","ext_id":16795,"gpsLong":17.9116,"gpsLat":47.107},{"name":"Jutaspuszta","ext_id":36122,"gpsLong":17.9014,"gpsLat":47.12374},{"name":"Jutaspuszta, elágazás","ext_id":36123,"gpsLong":17.900927,"gpsLat":47.116235},{"name":"Kabay János utca","ext_id":36395,"gpsLong":17.916512,"gpsLat":47.092039},{"name":"Kádárta, bejárati út","ext_id":16785,"gpsLong":17.94256,"gpsLat":47.1161},{"name":"Kádárta, felső","ext_id":16790,"gpsLong":17.946373,"gpsLat":47.119385},{"name":"Kádárta, szövetkezeti bolt","ext_id":16791,"gpsLong":17.949968,"gpsLat":47.12075},{"name":"Kádárta, tsz","ext_id":16789,"gpsLong":17.954718,"gpsLat":47.12228},{"name":"Kádárta, vasúti megállóhely","ext_id":16814,"gpsLong":17.953386,"gpsLat":47.125301},{"name":"Kádártai úti forduló","ext_id":36149,"gpsLong":17.929835,"gpsLat":47.103389},{"name":"Kisrúti utca","ext_id":36121,"gpsLong":17.904453,"gpsLat":47.120256},{"name":"Komfort","ext_id":16816,"gpsLong":17.896538,"gpsLat":47.116457},{"name":"Kórház","ext_id":16807,"gpsLong":17.911546,"gpsLat":47.090142},{"name":"KÖJÁL","ext_id":16796,"gpsLong":17.899099,"gpsLat":47.085252},{"name":"Laci-major","ext_id":30101,"gpsLong":17.908848,"gpsLat":47.057465},{"name":"Láhner György utca","ext_id":36120,"gpsLong":17.91617,"gpsLat":47.11643},{"name":"Laktanya","ext_id":36116,"gpsLong":17.914538,"gpsLat":47.1106},{"name":"Lóczy Lajos utca","ext_id":36154,"gpsLong":17.92875,"gpsLat":47.09183},{"name":"Magtér","ext_id":30100,"gpsLong":17.915267,"gpsLat":47.059481},{"name":"Március 15. utca","ext_id":36164,"gpsLong":17.92458,"gpsLat":47.106354},{"name":"Megyeház tér","ext_id":36142,"gpsLong":17.907521,"gpsLat":47.091133},{"name":"Mester utca","ext_id":36175,"gpsLong":17.9181,"gpsLat":47.083624},{"name":"Munkácsy Mihály utca","ext_id":36141,"gpsLong":17.9153,"gpsLat":47.10328},{"name":"Őrház utca","ext_id":36132,"gpsLong":17.91996,"gpsLat":47.10344},{"name":"Paál László utca","ext_id":36168,"gpsLong":17.909172,"gpsLat":47.078677},{"name":"Pajta utca 9.","ext_id":36182,"gpsLong":17.905504,"gpsLat":47.097488},{"name":"Pajta utca 22.","ext_id":36183,"gpsLong":17.90352,"gpsLat":47.10221},{"name":"Pápai úti forduló","ext_id":36110,"gpsLong":17.886375,"gpsLat":47.102188},{"name":"Papvásár utca","ext_id":36162,"gpsLong":17.901154,"gpsLat":47.105797},{"name":"Patak tér","ext_id":36184,"gpsLong":17.90117,"gpsLat":47.09706},{"name":"Pázmándi utca 24.","ext_id":36140,"gpsLong":17.904109,"gpsLat":47.08957},{"name":"Penny Market","ext_id":36119,"gpsLong":17.923228,"gpsLat":47.113013},{"name":"Petőfi Sándor utca","ext_id":36114,"gpsLong":17.9132,"gpsLat":47.09909},{"name":"Pipacs utca","ext_id":36133,"gpsLong":17.91855,"gpsLat":47.1013},{"name":"Posta-garázs","ext_id":36124,"gpsLong":17.889218,"gpsLat":47.114736},{"name":"Radnóti Miklós tér","ext_id":36172,"gpsLong":17.917027,"gpsLat":47.087686},{"name":"Ranolder János tér","ext_id":36187,"gpsLong":17.905139,"gpsLat":47.093325},{"name":"Rózsa utca","ext_id":36166,"gpsLong":17.91616,"gpsLat":47.09404},{"name":"SepsiszentGyörgy utca","ext_id":36075,"gpsLong":17.9199,"gpsLat":47.07252},{"name":"Sport vendéglő","ext_id":16798,"gpsLong":17.914041,"gpsLat":47.08177},{"name":"Stadion","ext_id":36146,"gpsLong":17.904895,"gpsLat":47.084325},{"name":"Stadion utca 19.","ext_id":36145,"gpsLong":17.907199,"gpsLat":47.082543},{"name":"Stadion utca 28.","ext_id":36171,"gpsLong":17.901498,"gpsLat":47.083057},{"name":"Szabadság lakótelep, bejárati út","ext_id":16813,"gpsLong":17.924259,"gpsLat":47.061973},{"name":"Szegfű utca","ext_id":36147,"gpsLong":17.9011,"gpsLat":47.08742},{"name":"Sziklai János utca","ext_id":36188,"gpsLong":17.904268,"gpsLat":47.094756},{"name":"Színház","ext_id":16808,"gpsLong":17.9054,"gpsLat":47.09163},{"name":"SZTK-rendelő","ext_id":16797,"gpsLong":17.907366,"gpsLat":47.089523},{"name":"Tejipar","ext_id":36126,"gpsLong":17.889883,"gpsLat":47.109611},{"name":"TESCO áruház","ext_id":16822,"gpsLong":17.931018,"gpsLat":47.103336},{"name":"Tizenháromváros tér","ext_id":36129,"gpsLong":17.89323,"gpsLat":47.10084},{"name":"Tölgyfa utca","ext_id":36165,"gpsLong":17.928025,"gpsLat":47.103363},{"name":"Tüzér utca","ext_id":36161,"gpsLong":17.9013,"gpsLat":47.1033},{"name":"Tüzér utcai forduló","ext_id":36163,"gpsLong":17.900805,"gpsLat":47.109362},{"name":"Valeo","ext_id":30059,"gpsLong":17.876539,"gpsLat":47.110947},{"name":"Vámosi utca 24.","ext_id":36139,"gpsLong":17.900608,"gpsLat":47.089891},{"name":"Vámosi úti forduló","ext_id":36148,"gpsLong":17.8977,"gpsLat":47.08307},{"name":"Vasútállomás","ext_id":16810,"gpsLong":17.911072,"gpsLat":47.118608},{"name":"Vértanú utca","ext_id":20651,"gpsLong":17.89705,"gpsLat":47.103579},{"name":"Veszprém Aréna","ext_id":36191,"gpsLong":17.934419,"gpsLat":47.10531},{"name":"Vilonyai utca","ext_id":36152,"gpsLong":17.92713,"gpsLat":47.09665},{"name":"Viola utca","ext_id":16802,"gpsLong":17.921758,"gpsLat":47.097054},{"name":"Virág Benedek utca","ext_id":36186,"gpsLong":17.906727,"gpsLat":47.093062},{"name":"Volán-telep","ext_id":16803,"gpsLong":17.891492,"gpsLat":47.100073},{"name":"Völgyhíd tér","ext_id":36135,"gpsLong":17.89408,"gpsLat":47.09916}]